[
  {
    "id": 1,
    "name": "Indira Gandhi International Airport",
    "city": "Delhi",
    "country": "India",
    "iata": "DEL",
    "icao": "VIDP",
    "lat": 28.5665,
    "lon": 77.1031,
    "elev": 777,
    "size": "small"
  },
  {
    "id": 2,
    "name": "Chhatrapati Shivaji Maharaj International Airport",
    "city": "Mumbai",
    "country": "India",
    "iata": "BOM",
    "icao": "VABB",
    "lat": 19.0896,
    "lon": 72.8656,
    "elev": 39,
    "size": "medium"
  },
  {
    "id": 3,
    "name": "Kempegowda International Airport",
    "city": "Bengaluru",
    "country": "India",
    "iata": "BLR",
    "icao": "VOBL",
    "lat": 13.1979,
    "lon": 77.7063,
    "elev": 3000,
    "size": "large"
  },
  {
    "id": 4,
    "name": "Cochin International Airport",
    "city": "Kochi",
    "country": "India",
    "iata": "COK",
    "icao": "VOCI",
    "lat": 10.1556,
    "lon": 76.391,
    "elev": 30,
    "size": "large"
  },
  {
    "id": 5,
    "name": "Rajiv Gandhi International Airport",
    "city": "Hyderabad",
    "country": "India",
    "iata": "HYD",
    "icao": "VOHS",
    "lat": 17.2403,
    "lon": 78.4294,
    "elev": 2024,
    "size": "large"
  },
  {
    "id": 6,
    "name": "Netaji Subhas Chandra Bose International Airport",
    "city": "Kolkata",
    "country": "India",
    "iata": "CCU",
    "icao": "VECC",
    "lat": 22.6547,
    "lon": 88.4467,
    "elev": 16,
    "size": "large"
  },
  {
    "id": 7,
    "name": "Chennai International Airport",
    "city": "Chennai",
    "country": "India",
    "iata": "MAA",
    "icao": "VOMM",
    "lat": 12.9941,
    "lon": 80.1709,
    "elev": 52,
    "size": "large"
  },
  {
    "id": 8,
    "name": "Sardar Vallabhbhai Patel International Airport",
    "city": "Ahmedabad",
    "country": "India",
    "iata": "AMD",
    "icao": "VAAH",
    "lat": 23.0772,
    "lon": 72.6347,
    "elev": 189,
    "size": "large"
  },
  {
    "id": 9,
    "name": "Pune Airport",
    "city": "Pune",
    "country": "India",
    "iata": "PNQ",
    "icao": "VAPO",
    "lat": 18.5821,
    "lon": 73.9197,
    "elev": 1942,
    "size": "medium"
  },
  {
    "id": 10,
    "name": "Jaipur International Airport",
    "city": "Jaipur",
    "country": "India",
    "iata": "JAI",
    "icao": "VIJP",
    "lat": 26.8242,
    "lon": 75.8122,
    "elev": 1263,
    "size": "medium"
  },
  {
    "id": 11,
    "name": "Trivandrum International Airport",
    "city": "Thiruvananthapuram",
    "country": "India",
    "iata": "TRV",
    "icao": "VOTV",
    "lat": 8.4821,
    "lon": 76.9207,
    "elev": 15,
    "size": "medium"
  },
  {
    "id": 12,
    "name": "Goa International Airport",
    "city": "Goa",
    "country": "India",
    "iata": "GOI",
    "icao": "VOGO",
    "lat": 15.3808,
    "lon": 73.8283,
    "elev": 150,
    "size": "medium"
  }
]